City_ID,City,Lat,Lng,Max Temp,Humidity,Cloudiness,Wind Speed,Country,Date
0,kish,26.5578,54.0194,23.15,60,0,0.0,IR,1701649096
1,balykshi,47.0667,51.8667,7.0,100,100,5.0,KZ,1701649096
2,bilibino,68.0546,166.4372,-21.98,99,100,1.17,RU,1701649097
3,olonkinbyen,70.9221,-8.7187,0.56,92,29,6.18,SJ,1701649098
4,bethel,41.3712,-73.414,7.9,89,100,3.6,US,1701649074
5,kingston,17.997,-76.7936,29.53,79,20,7.2,JM,1701649099
6,port-aux-francais,-49.35,70.2167,4.68,77,70,14.21,TF,1701649100
7,ushuaia,-54.8,-68.3,8.81,71,75,16.98,AR,1701649100
8,semarang,-6.9932,110.4203,26.96,94,20,1.03,ID,1701648971
9,luorong,24.4058,109.6086,12.16,91,100,2.07,CN,1701649102
10,malabar,-33.9667,151.25,23.73,63,37,3.22,AU,1701649102
11,margaret river,-33.95,115.0667,18.67,71,96,4.37,AU,1701649103
12,grytviken,-54.2811,-36.5092,0.77,73,10,2.5,GS,1701649103
13,puerto ayora,-0.7393,-90.3518,24.19,93,67,3.58,EC,1701649104
14,saipan,15.1355,145.701,28.39,74,40,10.29,MP,1701649105
15,faribault,44.295,-93.2688,1.58,87,0,1.54,US,1701649085
16,tbeng meanchey,13.8167,104.9667,23.24,86,73,0.6,KH,1701649106
17,waitangi,-43.9535,-176.5597,14.34,89,100,2.68,NZ,1701649107
18,edinburgh of the seven seas,-37.0676,-12.3116,14.78,84,47,3.61,SH,1701649108
19,kandi,11.1342,2.9386,23.14,11,99,1.65,BJ,1701649109
20,farafangana,-22.8167,47.8333,21.13,74,40,1.25,MG,1701649110
21,wailua homesteads,22.0669,-159.378,26.44,79,0,4.63,US,1701649110
22,qaqortoq,60.7167,-46.0333,-3.8,72,100,3.43,GL,1701649111
23,whitehorse,60.7161,-135.0538,-8.57,78,75,1.54,CA,1701649111
24,ribeira grande,38.5167,-28.7,15.55,50,33,2.08,PT,1701649112
25,belel,7.05,14.4333,18.77,35,46,0.79,CM,1701649113
26,blackmans bay,-43.0167,147.3167,19.85,60,100,1.79,AU,1701649113
27,thompson,55.7435,-97.8558,-4.91,93,100,1.54,CA,1701648983
28,harper,4.375,-7.7169,26.17,86,0,3.5,LR,1701649115
29,yellowknife,62.456,-114.3525,-19.71,84,100,4.12,CA,1701649025
30,punta arenas,-53.15,-70.9167,10.06,66,40,14.4,CL,1701649117
31,adamstown,-25.066,-130.1015,22.88,80,71,5.18,PN,1701649118
32,guarapari,-20.6667,-40.4975,26.05,86,8,6.89,BR,1701649119
33,hawaiian paradise park,19.5933,-154.9731,24.46,94,100,2.57,US,1701649119
34,tiksi,71.6872,128.8694,-27.89,99,100,3.91,RU,1701649120
35,nanaimo,49.1663,-123.936,8.6,94,100,4.12,CA,1701649120
36,laguna,38.421,-121.4238,18.16,69,0,2.57,US,1701649121
37,fethiye,36.6217,29.1164,15.93,83,72,1.7,TR,1701649122
38,talnakh,69.4865,88.3972,-34.21,86,12,0.71,RU,1701649122
39,muang phon-hong,18.4928,102.4172,21.23,91,100,0.53,LA,1701649123
40,pitimbu,-7.4706,-34.8086,27.33,83,36,4.69,BR,1701649123
41,howrah,22.5892,88.3103,21.0,83,75,1.54,IN,1701649124
42,sandnessjoen,66.0217,12.6316,-20.71,67,33,4.14,NO,1701649125
43,papatowai,-46.5619,169.4708,12.47,48,82,5.75,NZ,1701649126
44,college,64.8569,-147.8028,-20.31,77,75,1.54,US,1701649126
45,galle,6.0367,80.217,25.92,89,100,3.77,LK,1701649127
46,geraldton,-28.7667,114.6,23.23,64,40,8.23,AU,1701649127
47,zabrze,50.3249,18.7858,-5.73,96,82,2.23,PL,1701649128
48,vorgashor,67.5833,63.95,-26.2,97,93,1.79,RU,1701649129
49,bubaque,11.2833,-15.8333,27.98,68,76,6.36,GW,1701649129
50,fale old settlement,-9.3852,-171.2468,29.48,73,98,6.63,TK,1701649130
51,smithers,54.7804,-127.1743,2.18,87,75,4.12,CA,1701649130
52,manadhoo,5.7667,73.3833,28.31,76,21,3.83,MV,1701649131
53,porto novo,6.4965,2.6036,27.9,89,47,2.51,BJ,1701649131
54,rumoi,43.9344,141.6428,-0.11,84,58,3.49,JP,1701649132
55,greymouth,-42.4667,171.2,16.52,66,72,3.49,NZ,1701649133
56,codrington,-38.2667,141.9667,26.78,30,94,6.73,AU,1701649134
57,mirnyy,62.5353,113.9611,-42.96,100,74,1.21,RU,1701649134
58,tobruk,32.0836,23.9764,16.54,64,5,4.21,LY,1701649135
59,hadagalli,15.0167,75.95,22.14,79,100,2.83,IN,1701649136
60,sona,45.4388,10.8255,1.99,81,40,2.57,IT,1701649137
61,albany,42.6001,-73.9662,5.36,93,100,0.89,US,1701648890
62,coquimbo,-29.9533,-71.3436,16.57,70,0,1.79,CL,1701649081
63,east london,-33.0153,27.9116,19.99,81,94,2.12,ZA,1701649138
64,sao jose da coroa grande,-8.8978,-35.1478,25.95,88,58,4.42,BR,1701649139
65,avarua,-21.2078,-159.775,26.03,73,75,6.17,CK,1701649139
66,udachny,66.4167,112.4,-42.91,100,69,1.57,RU,1701649140
67,iqaluit,63.7506,-68.5145,-14.15,72,40,3.09,CA,1701649140
68,nukus,42.4531,59.6103,0.99,93,25,2.06,UZ,1701649142
69,stanley,54.868,-1.6985,-0.82,96,75,1.03,GB,1701649143
70,opuwo,-18.0607,13.84,21.22,76,100,1.57,NA,1701649144
71,uturoa,-16.7333,-151.4333,27.26,79,100,9.82,PF,1701649144
72,nemuro,43.3236,145.575,3.28,66,67,1.67,JP,1701649145
73,invercargill,-46.4,168.35,12.58,47,65,4.92,NZ,1701649145
74,el abiodh sidi cheikh,32.893,0.5484,5.63,34,25,1.63,DZ,1701649146
75,nova sintra,14.8667,-24.7167,22.67,76,53,7.07,CV,1701649147
76,acapulco de juarez,16.8634,-99.8901,28.9,70,0,2.06,MX,1701648947
77,lihue,21.9789,-159.3672,26.77,73,0,4.63,US,1701649148
78,pisco,-13.7,-76.2167,21.12,77,0,9.77,PE,1701649127
79,san patricio,28.017,-97.5169,18.63,40,100,2.83,US,1701649149
80,new norfolk,-42.7826,147.0587,20.51,49,100,1.66,AU,1701649149
81,fort bragg,35.139,-79.006,21.01,86,20,3.6,US,1701649068
82,nuuk,64.1835,-51.7216,-1.66,74,75,1.03,GL,1701648925
83,longyearbyen,78.2186,15.6401,-10.09,57,0,6.69,SJ,1701649151
84,zhezqazghan,47.7833,67.7667,-5.68,86,40,1.0,KZ,1701649151
85,mont-laurier,46.5501,-75.4993,-3.21,96,100,4.6,CA,1701649152
86,ujae,8.9322,165.7642,27.75,75,100,8.4,MH,1701649153
87,jaisalmer,26.9147,70.9181,17.5,31,0,2.9,IN,1701649154
88,holualoa,19.6228,-155.9522,26.97,80,40,4.12,US,1701649154
89,villa la angostura,-40.7617,-71.6463,7.95,83,0,1.1,AR,1701648997
90,miri,4.4148,114.0089,28.08,89,20,1.54,MY,1701649155
91,isenbuttel,52.4333,10.5833,-0.92,96,75,0.51,DE,1701649156
92,st. john's,47.5649,-52.7093,0.64,77,100,4.12,CA,1701649156
93,okondja,-0.6549,13.6753,22.22,97,96,0.61,GA,1701649157
94,carnarvon,-24.8667,113.6333,25.0,59,1,7.85,AU,1701649158
95,west island,-12.1568,96.8225,25.99,78,60,4.63,CC,1701649158
96,ilulissat,69.2167,-51.1,-5.99,73,75,1.54,GL,1701649159
97,tirmiz,37.2242,67.2783,7.05,70,0,3.09,UZ,1701649160
98,cinarli,41.4723,46.9156,4.09,45,64,3.34,AZ,1701649160
99,tsaratanana,-16.7833,47.65,22.34,81,58,3.33,MG,1701649161
100,bredasdorp,-34.5322,20.0403,14.67,81,35,2.56,ZA,1701649161
101,tolanaro,-25.0319,46.9987,21.5,76,71,5.53,MG,1701649162
102,caluula,11.9661,50.7569,25.83,64,88,6.28,SO,1701649163
103,balkanabat,39.5108,54.3671,15.08,30,0,2.14,TM,1701649163
104,praia da vitoria,38.7333,-27.0667,13.2,88,75,2.95,PT,1701649164
105,kota bharu,6.1333,102.2386,23.97,100,20,1.54,MY,1701649164
106,la'ie,21.6477,-157.9253,28.98,75,12,3.58,US,1701649165
107,inhambane,-23.865,35.3833,22.79,72,3,3.98,MZ,1701649166
108,adre,13.4667,22.2,20.9,18,70,4.94,TD,1701649166
109,kibaya,-5.3,36.5667,16.88,91,96,1.07,TZ,1701649167
110,taksimo,56.3444,114.8794,-17.25,91,99,0.47,RU,1701649168
111,korsholm,63.1142,21.6822,-11.67,93,0,1.34,FI,1701648895
112,gilgit,35.9221,74.3087,3.71,44,17,1.55,PK,1701649169
113,alice springs,-23.7,133.8833,33.75,16,0,4.63,AU,1701649169
114,fort st. john,56.2499,-120.8529,-4.06,100,100,5.66,CA,1701649170
115,klyuchi,52.2667,79.1667,-8.1,79,100,9.77,RU,1701649171
116,dryden,49.7833,-92.7503,0.16,80,100,4.12,CA,1701649171
117,lankaran,38.7543,48.8506,16.22,40,0,1.71,AZ,1701649172
118,ancud,-41.8697,-73.8203,10.28,68,13,3.72,CL,1701649172
119,saldanha,-33.0117,17.9442,13.03,84,87,4.12,ZA,1701649173
120,vammala,61.3333,22.9,-11.42,99,94,1.11,FI,1701649173
121,baruun-urt,46.6806,113.2792,-18.33,95,5,2.2,MN,1701649174
122,ma'rib,15.4591,45.3253,15.71,41,1,1.6,YE,1701649175
123,puerto natales,-51.7236,-72.4875,6.93,84,94,4.45,CL,1701649050
124,sinabang,2.4803,96.3801,26.09,83,100,2.23,ID,1701649176
125,rio gallegos,-51.6226,-69.2181,11.03,66,20,11.83,AR,1701649176
126,bloemfontein,-29.1211,26.214,15.71,59,56,0.0,ZA,1701649177
127,okhotsk,59.3833,143.3,-34.02,86,31,6.01,RU,1701649178
128,utrik,11.2278,169.8474,27.32,75,94,8.94,MH,1701649178
129,port mathurin,-19.6833,63.4167,25.67,83,85,7.99,MU,1701649179
130,crane,31.3974,-102.3501,16.23,23,0,6.97,US,1701649180
131,lebu,-37.6167,-73.65,11.58,78,0,10.92,CL,1701649180
132,villa gesell,-37.2639,-56.973,15.03,60,8,7.53,AR,1701649181
133,el granada,37.5027,-122.4694,17.14,82,40,3.09,US,1701649181
134,sangmelima,2.9333,11.9833,20.65,97,99,1.67,CM,1701649182
135,soio,-6.1349,12.3689,26.23,76,37,2.29,AO,1701649183
136,vorkuta,67.5,64.0,-25.97,97,93,1.93,RU,1701649184
137,sarmiento,-45.5882,-69.07,15.94,33,1,8.25,AR,1701649184
138,sitka,57.0531,-135.33,7.94,66,100,6.69,US,1701649055
139,yelizovo,53.1873,158.3805,-6.78,61,0,3.13,RU,1701649186
140,lefka,35.1106,32.8506,16.35,65,100,2.79,CY,1701649186
141,sao vicente,-23.9631,-46.3919,29.59,26,50,1.7,BR,1701649187
142,khandyga,62.6667,135.6,-49.56,100,94,0.52,RU,1701649187
143,el gouna,27.3942,33.6782,22.11,52,89,3.0,EG,1701649188
144,portland,45.5234,-122.6762,14.79,94,100,2.24,US,1701648998
145,bani walid,31.7566,13.9942,13.03,87,22,5.33,LY,1701649190
146,hermanus,-34.4187,19.2345,16.38,78,46,2.08,ZA,1701649191
147,badger,64.8,-147.5333,-20.36,79,40,1.54,US,1701649113
148,palmer,42.1584,-72.3287,6.03,84,100,4.63,US,1701648930
149,daru,-9.0763,143.2092,28.86,76,100,4.27,PG,1701649193
150,north bend,43.4065,-124.2243,14.36,94,100,6.69,US,1701649193
151,letlhakane,-21.4167,25.5833,22.25,30,23,5.64,BW,1701649194
152,alness,57.696,-4.2551,-0.16,93,98,1.8,GB,1701649194
153,namtsy,62.7161,129.6658,-43.34,99,96,0.75,RU,1701649196
154,jamestown,42.097,-79.2353,5.85,96,100,9.77,US,1701649196
155,san andres,12.5847,-81.7006,28.14,81,15,8.03,CO,1701649197
156,port elizabeth,-33.918,25.5701,17.4,75,0,2.57,ZA,1701649197
157,shanhecun,44.7,127.2,-0.7,83,58,8.95,CN,1701649198
158,san julian,21.0167,-102.1667,13.27,75,100,0.52,MX,1701649198
159,batang,-6.4846,110.7083,27.24,80,100,1.99,ID,1701649199
160,pyu,18.4833,96.4333,21.22,90,92,2.43,MM,1701649199
161,malakal,9.5334,31.6605,26.55,31,8,1.67,SS,1701649200
162,voss,60.623,6.4229,-13.11,97,68,1.9,NO,1701649202
163,zeribet el oued,34.6828,6.5111,13.2,63,4,0.96,DZ,1701649203
164,kamaishi,39.2667,141.8833,6.87,71,36,2.63,JP,1701649203
165,atafu village,-8.5421,-172.5159,29.27,76,100,5.91,TK,1701649204
166,miles city,46.4083,-105.8406,1.54,51,0,3.09,US,1701649205
167,guerrero negro,27.9769,-114.0611,20.24,54,0,6.52,MX,1701649206
168,labrador city,52.9463,-66.9114,-15.05,78,100,1.54,CA,1701649206
169,nelson,-41.2833,173.2833,16.27,94,100,0.45,NZ,1701649207
170,mesquite,32.7668,-96.5992,19.32,39,0,0.89,US,1701649207
171,tosontsengel,48.7567,98.2839,-15.9,90,91,1.36,MN,1701649208
172,cabo san lucas,22.8909,-109.9124,26.95,52,0,2.06,MX,1701648696
173,fortuna,40.5982,-124.1573,15.37,92,100,5.14,US,1701649209
174,abu dhabi,24.4667,54.3667,26.64,72,0,0.0,AE,1701648999
175,rio grande,-32.035,-52.0986,20.06,79,100,9.35,BR,1701649210
176,sirte,31.2089,16.5887,19.43,67,9,8.9,LY,1701649211
177,micheweni,-4.9667,39.8333,26.48,83,82,4.48,TZ,1701649212
178,pedernales,18.0384,-71.744,25.96,78,0,2.53,DO,1701649213
179,askino,56.0901,56.5783,-10.48,95,100,2.72,RU,1701649213
180,prince rupert,54.3161,-130.3201,9.83,80,100,11.83,CA,1701649214
181,vanimo,-2.6741,141.3028,27.58,83,51,0.42,PG,1701649215
182,mahenge,-8.6833,36.7167,17.29,96,100,0.48,TZ,1701649215
183,valle de la pascua,9.2155,-66.0073,26.23,68,40,4.46,VE,1701649216
184,colonel hill,22.7667,-74.2167,26.61,76,70,5.82,BS,1701649217
185,isafjordur,66.0755,-23.124,0.59,88,88,4.13,IS,1701649217
186,labuan,5.2767,115.2417,30.2,79,20,1.54,MY,1701649218
187,izluchinsk,60.9794,76.9242,-28.88,91,20,6.3,RU,1701649219
188,hinche,19.15,-72.0167,22.33,92,18,3.05,HT,1701649220
189,makhambet,47.6667,51.5833,7.68,90,100,4.74,KZ,1701649220
190,neiafu,-18.65,-173.9833,29.38,74,75,7.2,TO,1701649221
191,kapuskasing,49.4169,-82.4331,-7.95,86,40,3.09,CA,1701649222
192,cruzeiro do sul,-29.5128,-51.9853,21.96,92,94,2.49,BR,1701649222
193,fort mcmurray,56.7268,-111.381,-7.23,86,0,3.6,CA,1701649223
194,arraial do cabo,-22.9661,-42.0278,24.1,91,57,9.88,BR,1701649223
195,souillac,-20.5167,57.5167,23.21,94,75,2.06,MU,1701649224
196,bethanie,-26.4833,17.15,22.6,24,30,2.1,NA,1701649225
197,kruisfontein,-34.0033,24.7314,13.02,90,53,2.14,ZA,1701649225
198,yilan,24.757,121.753,19.39,97,100,1.78,TW,1701649226
199,kyabe,9.4515,18.9449,27.76,28,56,1.06,TD,1701649227
200,santana do livramento,-30.8908,-55.5328,17.31,95,100,8.22,BR,1701649227
201,trendelburg,51.5741,9.421,-0.9,85,40,5.66,DE,1701649228
202,dudinka,69.4058,86.1778,-33.02,93,17,3.63,RU,1701649228
203,kandiari,26.9156,68.5216,18.23,38,0,1.58,PK,1701649229
204,cotonou,6.3654,2.4183,27.99,83,40,4.63,BJ,1701649230
205,constantia,44.1833,28.65,1.38,81,100,6.61,RO,1701649230
206,dumbea,-22.15,166.45,31.98,98,36,2.53,NC,1701649231
207,tondano,1.3038,124.9112,24.05,76,80,0.83,ID,1701649231
208,iskushuban,10.2837,50.23,21.44,72,98,3.49,SO,1701649232
209,kodiak,57.79,-152.4072,3.73,81,0,5.66,US,1701649233
210,ko pha ngan,9.7578,100.0291,25.38,83,99,7.02,TH,1701649233
211,mora,11.0461,14.1401,23.36,18,28,1.94,CM,1701649234
212,mount isa,-20.7333,139.5,34.87,31,5,2.57,AU,1701649235
213,xiangyang,32.0422,112.1448,8.33,50,100,2.04,CN,1701649236
214,cockburn town,21.4612,-71.1419,26.45,66,21,6.23,TC,1701649237
215,matsubase,32.65,130.6667,10.22,63,12,0.85,JP,1701649237
216,tuchkovo,55.6011,36.4681,-8.11,94,98,3.76,RU,1701649238
217,gereida,11.2811,25.1414,22.77,24,72,4.52,SD,1701649238
218,al bawiti,28.3492,28.8659,16.18,78,100,2.35,EG,1701649239
219,savalou,7.9281,1.9756,25.25,69,9,1.19,BJ,1701649240
220,newnham,-41.3833,147.1333,19.53,52,40,7.2,AU,1701649240
221,kabatas,40.75,37.45,12.86,51,100,4.29,TR,1701649241
222,cidreira,-30.1811,-50.2056,21.6,93,64,3.01,BR,1701649242
223,gagnoa,6.1293,-5.9437,23.72,92,52,1.25,CI,1701649243
224,rongelap,11.1635,166.8941,27.5,71,98,7.52,MH,1701649243
225,kirakira,-10.4544,161.9205,27.22,88,100,5.41,SB,1701649244
226,kerikeri,-35.2268,173.9474,22.41,77,100,3.82,NZ,1701649245
227,namibe,-15.1961,12.1522,22.72,87,100,1.65,AO,1701649246
228,chui,-33.6971,-53.4616,17.2,55,100,7.25,UY,1701649247
229,karratha,-20.7377,116.8463,27.04,71,9,5.16,AU,1701649121
230,cooma,-36.2333,149.1333,20.61,53,47,1.51,AU,1701649005
231,susuman,62.7833,148.1667,-32.67,99,100,0.63,RU,1701649248
232,ust-nera,64.5667,143.2,-39.55,98,100,1.83,RU,1701649249
233,astrakhan,46.3497,48.0408,8.93,100,100,3.13,RU,1701649250
234,chibougamau,49.9168,-74.3659,-12.21,85,0,4.63,CA,1701649251
235,carutapera,-1.195,-46.02,26.59,83,83,2.74,BR,1701649251
236,ocampo,21.65,-101.5,10.68,85,100,3.49,MX,1701649252
237,bonnyville,54.2668,-110.735,-2.38,92,33,2.15,CA,1701649252
238,kalmunai,7.4167,81.8167,25.01,91,70,3.78,LK,1701649254
239,cove,7.221,2.3402,24.37,92,16,1.65,BJ,1701649254
240,bazarak,35.3129,69.5152,1.33,70,7,4.44,AF,1701649255
241,gadzhiyevo,69.2551,33.3362,-4.03,93,100,1.23,RU,1701649255
242,urangan,-25.3,152.9,26.56,77,26,1.22,AU,1701649141
243,idku,31.3078,30.299,19.66,81,93,3.09,EG,1701649256
244,anadyr,64.75,177.4833,-18.72,84,20,3.0,RU,1701649257
245,puerto leguizamo,-0.1934,-74.7819,26.14,72,97,1.12,CO,1701649257
246,zouerate,22.7187,-12.4521,20.7,47,35,3.23,MR,1701649258
247,aldinga beach,-35.2793,138.4604,33.44,39,12,4.21,AU,1701649258
248,petropavlovsk-kamchatsky,53.0452,158.6483,-7.53,76,0,3.58,RU,1701649259
249,afaahiti,-17.75,-149.2833,30.93,83,100,9.91,PF,1701649259
250,lazaro cardenas,17.9583,-102.2,26.79,74,53,1.26,MX,1701649260
251,griffith,41.5284,-87.4237,3.83,82,100,5.14,US,1701649261
252,igarka,67.4667,86.5833,-35.41,97,23,3.37,RU,1701649261
253,colonia,50.9333,6.95,1.6,80,0,5.14,DE,1701649262
254,mournies,35.4764,24.0092,12.22,87,20,0.0,GR,1701649263
255,howard springs,-12.497,131.047,30.95,64,94,1.16,AU,1701649264
256,tazacorte,28.629,-17.9293,17.86,88,0,3.09,ES,1701649265
257,dunedin,-45.8742,170.5036,14.33,52,61,2.68,NZ,1701649266
258,arkhara,49.4212,130.0842,-10.13,92,100,4.02,RU,1701649266
259,kindu,-2.95,25.95,20.3,99,100,0.77,CD,1701648974
260,queenstown,-31.8976,26.8753,15.64,90,76,2.22,ZA,1701649268
261,ivankiv,50.9386,29.8943,-5.74,95,98,3.67,UA,1701649268
262,cutral-co,-38.9469,-69.2089,16.06,10,0,0.89,AR,1701649269
263,santa terezinha,-29.9002,-50.0904,21.3,94,88,2.45,BR,1701649269
264,hithadhoo,-0.6,73.0833,27.68,78,65,3.73,MV,1701649270
265,kochenevo,55.0218,82.202,-6.34,92,98,8.76,RU,1701649271
266,chonchi,-42.6128,-73.8092,10.62,75,43,2.01,CL,1701649271
267,kimbe,-5.5502,150.1429,31.66,61,42,0.78,PG,1701649272
268,bria,6.5423,21.9863,22.35,80,55,1.26,CF,1701649273
269,gizo,-8.103,156.8419,25.96,93,100,10.8,SB,1701649273
270,taltal,-25.4,-70.4833,18.13,77,22,1.85,CL,1701649274
271,sao bartolomeu de messines,37.2602,-8.2867,15.23,82,96,2.44,PT,1701649274
272,massawa,15.6097,39.45,27.7,69,0,1.32,ER,1701649275
273,vilyuysk,63.7553,121.6247,-48.44,100,77,0.13,RU,1701649275
274,candelaria,13.9311,121.4233,27.44,90,74,3.16,PH,1701649276
275,ugoofaaru,5.6667,73.0,28.23,76,20,3.27,MV,1701649277
276,burao,9.5221,45.5336,18.03,36,20,6.51,SO,1701649277
277,novyy urengoy,66.0833,76.6333,-28.59,96,6,5.55,RU,1701649230
278,constitucion,-35.3333,-72.4167,13.23,74,0,6.86,CL,1701649177
279,weno,7.4515,151.8468,29.97,74,100,5.14,FM,1701649279
280,luderitz,-26.6481,15.1594,16.6,66,0,7.94,NA,1701649280
281,sault ste. marie,46.5168,-84.3333,-1.69,48,100,3.09,CA,1701649195
282,dammam,26.4344,50.1033,18.08,88,0,3.6,SA,1701649281
283,rikaze,29.25,88.8833,-6.49,35,6,1.36,CN,1701649282
284,guankou,28.15,113.6333,8.89,87,98,0.86,CN,1701649283
285,tsiombe,-25.3,45.4833,21.34,69,0,6.14,MG,1701649283
286,hasaki,35.7333,140.8333,10.16,52,1,5.59,JP,1701649284
287,brookings,44.3114,-96.7984,-0.46,86,100,1.54,US,1701649071
288,siirt,37.9326,41.9403,7.61,49,77,0.5,TR,1701649286
289,arkalyk,50.2486,66.9114,-5.52,77,87,4.68,KZ,1701649287
290,fada,9.5667,8.3,21.13,38,47,1.46,NG,1701649288
291,vadso,70.0744,29.7487,-2.91,86,75,4.63,NO,1701649289
292,hadibu,12.65,54.0333,25.06,67,87,7.51,YE,1701649290
293,aasiaat,68.7098,-52.8699,-10.93,83,100,1.4,GL,1701649291
294,capri,40.5507,14.2426,12.38,56,43,2.33,IT,1701649291
295,bonthe,7.5264,-12.505,26.51,85,94,2.35,SL,1701649292
296,rabaul,-4.1967,152.1721,28.18,74,96,0.42,PG,1701649292
297,castillos,-34.1667,-53.8333,16.22,48,100,6.41,UY,1701649293
298,bowral,-34.4667,150.4167,19.52,50,46,1.48,AU,1701649293
299,puerto baquerizo moreno,-0.9,-89.6,23.92,79,67,4.35,EC,1701649294
300,san luis rio colorado,32.4631,-114.7767,21.1,29,40,1.95,MX,1701649295
301,newman,37.3138,-121.0208,16.68,46,100,1.48,US,1701649295
302,rosa zarate,0.3333,-79.4667,24.82,87,97,1.91,EC,1701649296
303,mandla,22.6,80.3833,17.59,75,100,1.21,IN,1701649297
304,birao,10.2849,22.7882,22.63,27,81,1.78,CF,1701649298
305,kirensk,57.7853,108.1119,-5.58,86,100,4.02,RU,1701649298
306,kone,-21.0595,164.8658,32.55,44,54,0.62,NC,1701649051
307,brokopondo,4.75,-55.1667,27.17,73,92,4.41,SR,1701649299
308,taulaga,-11.0553,-171.0883,28.4,78,100,5.94,AS,1701649300
309,bikenibeu village,1.3673,173.1241,30.98,74,75,3.6,KI,1701649301
310,sambava,-14.2667,50.1667,24.11,84,61,5.92,MG,1701649301
311,la ronge,55.1001,-105.2842,-12.86,85,0,1.03,CA,1701649302
312,kharp,66.8014,65.8081,-27.44,94,54,1.15,RU,1701649302
313,tuy hoa,13.0833,109.3,24.27,92,100,1.74,VN,1701649303
314,ketchikan,55.3422,-131.6461,8.26,87,100,6.17,US,1701649303
315,crucecita,-28.95,-58.9833,20.25,97,98,3.26,AR,1701649304
316,revda,56.801,59.9303,-14.44,98,99,1.5,RU,1701649304
317,xifeng,42.7372,124.7222,0.69,76,23,7.18,CN,1701649305
318,port alfred,-33.5906,26.891,14.54,93,59,2.98,ZA,1701649306
319,waitara,-38.925,174.25,18.33,86,98,3.15,NZ,1701649306
320,port lincoln,-34.7333,135.8667,23.87,47,0,3.73,AU,1701649307
321,shanor-northvue,40.9105,-79.9156,9.06,69,75,8.23,US,1701649307
322,katsuura,35.1333,140.3,11.24,45,0,2.62,JP,1701649302
323,ilha de mocambique,-15.0342,40.7358,26.32,67,32,3.11,MZ,1701649308
324,atar,20.5169,-13.0499,23.01,32,0,2.55,MR,1701649309
325,amga,60.8953,131.9608,-49.47,100,67,0.38,RU,1701649309
326,bamboo flat,11.7,92.7167,27.05,89,75,3.6,IN,1701649310
327,selfoss,63.9331,-20.9971,-1.64,59,100,3.46,IS,1701649311
328,murzuq,25.9155,13.9184,16.29,19,2,4.57,LY,1701649311
329,broome,42.2506,-75.833,8.03,89,100,3.6,US,1701649312
330,saint-pierre,-21.3393,55.4781,20.87,68,40,4.63,RE,1701649313
331,starobin,52.7267,27.4606,-7.96,97,98,3.05,BY,1701649313
332,outokumpu,62.7269,29.0159,-13.06,100,98,0.7,FI,1701649314
333,santa ana de yacuma,-13.75,-65.4333,25.71,83,88,2.34,BO,1701649315
334,vila velha,-20.3297,-40.2925,26.08,87,40,5.14,BR,1701649243
335,archangelos,36.2149,28.1149,17.39,80,47,4.41,GR,1701649317
336,vilyuchinsk,52.9306,158.4028,-6.71,70,3,4.31,RU,1701649318
337,dawesville,30.9224,-84.0091,20.38,96,100,0.0,US,1701649318
338,greenbrier,36.4276,-86.8047,10.79,75,0,0.0,US,1701649315
339,kokstad,-30.5472,29.4241,14.9,97,94,0.97,ZA,1701649320
340,puerto deseado,-47.7503,-65.8938,12.53,44,10,9.4,AR,1701649320
341,gedo,9.0167,37.45,11.38,55,73,1.48,ET,1701649321
342,sciacca,37.5082,13.0881,10.57,73,3,4.15,IT,1701649321
343,bijar,35.8668,47.6051,3.32,37,1,2.4,IR,1701649322
344,mossel bay,-34.1831,22.146,16.96,75,100,2.25,ZA,1701649323
345,saint-philippe,-21.3585,55.7679,20.77,72,55,1.81,RE,1701649324
346,lagos,6.5833,3.75,27.18,91,8,1.6,NG,1701649324
347,ipira,-12.1583,-39.7372,24.02,70,0,5.7,BR,1701649325
348,mary,37.0,62.5,13.99,34,0,3.1,TM,1701649326
349,broken hill,-31.95,141.4333,29.95,17,1,5.52,AU,1701649326
350,lompoc,34.6391,-120.4579,18.08,68,0,9.26,US,1701649327
351,georgetown,5.4112,100.3354,26.64,92,20,1.54,MY,1701649327
352,guichon,-32.35,-57.2,16.19,48,100,7.77,UY,1701649328
353,loch garman,52.3342,-6.4575,6.61,100,100,6.26,IE,1701649329
354,batticaloa,7.7102,81.6924,25.26,89,50,2.16,LK,1701649329
355,berezovyy,51.6667,135.7,-11.12,84,100,0.78,RU,1701649330
356,ilebo,-4.3167,20.5833,21.15,100,100,0.29,CD,1701649331
357,andergrove,-21.0833,149.1833,32.58,71,89,2.77,AU,1701649331
358,san jeronimito,17.55,-101.3333,29.91,66,40,0.0,MX,1701649332
359,kodinsk,58.6881,99.1844,-4.2,96,100,2.75,RU,1701649332
360,bluefields,12.0137,-83.7635,25.55,90,51,2.76,NI,1701649333
361,juan griego,11.0817,-63.9655,26.17,84,8,5.68,VE,1701649334
362,kununurra,-15.7667,128.7333,32.99,52,48,2.57,AU,1701649334
363,tindouf,27.6711,-8.1474,15.25,41,0,2.06,DZ,1701649335
364,soroti,1.7146,33.6111,19.93,75,55,1.67,UG,1701649335
365,kilindoni,-7.9139,39.6668,26.47,81,91,2.64,TZ,1701649336
366,tazovsky,67.4667,78.7,-29.27,92,17,4.67,RU,1701649337
367,dingcheng,32.1272,115.0394,8.4,48,98,3.1,CN,1701649337
368,ambazac,45.9598,1.4006,5.18,54,100,6.31,FR,1701649338
369,dul'durga,50.6761,113.5931,-16.05,97,20,1.47,RU,1701649339
370,tulun,54.5611,100.5792,-6.92,91,100,2.18,RU,1701649339
371,priargunsk,50.3691,119.1012,-23.22,100,50,0.7,RU,1701649340
372,ariquemes,-9.9133,-63.0408,25.87,79,69,0.77,BR,1701649341
373,burela de cabo,43.65,-7.4,12.32,78,59,8.94,ES,1701649342
374,buzuluk,52.7807,52.2635,-1.69,93,100,7.6,RU,1701649342
375,mata-utu,-13.2816,-176.1745,28.64,76,35,6.27,WF,1701649343
376,prince george,53.9166,-122.753,0.7,93,0,7.72,CA,1701649283
377,yuzhno-kurilsk,44.0306,145.8556,1.32,64,38,3.03,RU,1701649344
378,chernyshevsk,52.5243,117.0174,-20.74,100,82,0.81,RU,1701649345
379,meizhou,24.2977,116.1072,15.02,81,100,1.38,CN,1701649345
380,ormara,25.2088,64.6357,23.63,51,0,3.85,PK,1701649346
381,pacific grove,36.6177,-121.9166,16.25,79,0,2.06,US,1701649347
382,tamanrasset,22.785,5.5228,10.95,11,0,2.06,DZ,1701649295
383,haiku-pauwela,20.9219,-156.3051,28.01,65,40,7.72,US,1701649348
384,hamilton,39.1834,-84.5333,8.01,76,40,8.23,US,1701649348
385,camacupa,-12.0167,17.4833,16.94,98,100,1.51,AO,1701649349
386,nahiyat ash shinafiyah,31.5874,44.6602,16.16,45,0,3.32,IQ,1701649350
387,tommot,58.9564,126.2925,-25.68,99,100,0.84,RU,1701649351
388,guajara mirim,-10.7828,-65.3394,26.7,76,100,1.64,BR,1701649352
389,irthlingborough,52.3267,-0.6113,7.51,99,100,3.77,GB,1701649352
390,lincheng,19.9078,109.6858,22.03,91,97,4.98,CN,1701649354
391,kolonia town,6.964,158.206,32.0,66,100,5.14,FM,1701649354
392,mar del plata,-38.0023,-57.5575,15.05,61,0,5.36,AR,1701649142
393,cocorna,6.0573,-75.1852,22.18,98,27,0.69,CO,1701649355
394,ciudad bolivar,8.1222,-63.5497,28.68,63,84,6.76,VE,1701649356
395,ekibastuz,51.6667,75.3667,-7.87,71,100,10.36,KZ,1701649357
396,macapa,0.0389,-51.0664,28.99,79,75,3.6,BR,1701649344
397,ingeniero jacobacci,-41.3427,-69.5448,15.21,12,0,5.55,AR,1701649358
398,usinsk,65.9939,57.5281,-14.23,96,100,3.08,RU,1701649359
399,mugia,43.1041,-9.2179,14.53,84,26,11.39,ES,1701649359
400,lerwick,60.1545,-1.1494,4.0,68,15,2.85,GB,1701649360
401,wetteren,50.9934,3.8721,2.81,74,100,6.4,BE,1701649360
402,tura,25.5198,90.2201,16.45,76,99,1.91,IN,1701649308
403,horta,38.5333,-28.6333,14.93,51,41,2.18,PT,1701649362
404,morehead city,34.7229,-76.726,20.01,86,0,5.14,US,1701649363
405,alofi,-19.0595,-169.9187,28.94,65,13,5.57,NU,1701649296
406,kamiiso,41.8167,140.65,2.21,75,75,2.06,JP,1701649364
407,yanchep,-31.55,115.6833,24.45,69,11,3.21,AU,1701649364
408,pandan,14.0453,124.1694,26.83,87,66,6.01,PH,1701649326
409,at taj,24.2049,23.2857,16.2,16,18,2.04,LY,1701649365
410,masterton,-40.9597,175.6575,15.49,94,100,1.72,NZ,1701649366
411,najran,17.4924,44.1277,12.36,53,0,0.74,SA,1701649367
412,hjo,58.3013,14.2878,-6.01,92,100,3.65,SE,1701649368
413,naha,26.2125,127.6811,21.38,96,75,6.17,JP,1701649368
414,urengoy,65.9667,78.3667,-30.13,93,9,5.29,RU,1701649369
415,walvis bay,-22.9575,14.5053,17.53,77,56,2.57,NA,1701649369
416,ventspils,57.3894,21.5606,-8.04,100,40,0.0,LV,1701649370
417,ghanzi,-21.5667,21.7833,27.02,14,65,3.85,BW,1701649371
418,prainha,-1.8,-53.48,27.57,61,89,1.23,BR,1701649371
419,mejit,10.2753,170.8646,27.16,78,99,9.44,MH,1701649372
420,bardai,11.65,7.2333,19.69,26,29,1.7,NG,1701649372
421,ocean city,39.2776,-74.5746,12.22,94,100,1.79,US,1701649352
422,thinadhoo,0.5333,72.9333,27.61,75,36,2.24,MV,1701649373
423,vanino,49.0869,140.2543,-6.71,67,100,1.51,RU,1701649374
424,ilhabela,-23.7781,-45.3581,24.81,88,58,2.01,BR,1701649374
425,metropolis,37.1512,-88.732,7.86,79,0,0.0,US,1701649375
426,isiolo,0.3546,37.5822,19.37,77,10,1.57,KE,1701649376
427,salalah,17.0151,54.0924,25.05,53,0,4.63,OM,1701649376
428,anshun,26.25,105.9333,6.82,89,100,1.64,CN,1701649377
429,les cayes,18.2,-73.75,25.0,79,4,1.43,HT,1701649377
430,palikir - national government center,6.9248,158.1611,31.41,66,100,5.14,FM,1701649378
431,ust'-kut,56.7938,105.7672,-8.65,95,100,1.79,RU,1701649379
432,iskateley,67.6803,53.1512,-17.25,96,96,4.37,RU,1701649379
433,golere,16.2557,-14.1017,28.62,23,77,5.2,SN,1701649380
434,altus,34.6381,-99.334,16.73,29,0,11.83,US,1701649380
435,manjeshvar,12.7,74.8833,25.66,77,97,2.87,IN,1701649381
436,itaituba,-4.2761,-55.9836,23.15,96,99,0.58,BR,1701649381
437,labytnangi,66.6572,66.4183,-32.12,98,50,0.69,RU,1701649382
438,polyarnyy,69.1989,33.4478,-3.99,93,100,1.16,RU,1701649383
439,vila franca do campo,37.7167,-25.4333,13.23,67,74,3.11,PT,1701649384
440,nova vicosa,-17.8919,-39.3719,25.7,82,0,5.56,BR,1701649215
441,la paz,-16.5,-68.15,12.54,75,75,6.17,BO,1701649385
442,whitby,54.4877,-0.615,2.86,93,100,3.95,GB,1701649385
443,port saint john's,-31.6229,29.5448,20.33,90,76,2.42,ZA,1701649386
444,wynyard,-41.0,145.7167,16.85,72,100,5.25,AU,1701649125
445,bodo,67.28,14.405,-6.24,73,0,7.2,NO,1701649387
446,alto piquiri,-24.0281,-53.4406,22.7,97,98,2.94,BR,1701649388
447,dwarka,22.2394,68.9678,24.0,59,0,8.56,IN,1701649389
448,antsiranana,-12.2787,49.2917,25.09,78,17,6.47,MG,1701649389
449,waddan,29.1614,16.139,14.55,85,3,4.27,LY,1701649390
450,muynoq,43.7683,59.0214,8.59,57,49,3.36,UZ,1701649390
451,hohhot,40.8106,111.6522,-8.84,53,0,1.0,CN,1701649391
452,leh,34.1667,77.5833,-6.9,45,85,1.87,IN,1701649391
453,remire-montjoly,4.9167,-52.2667,26.02,89,0,0.51,GF,1701649304
454,ormeau,-27.7833,153.2667,30.47,70,16,3.41,AU,1701649392
455,wuwei,37.9281,102.6414,1.61,27,22,2.51,CN,1701649393
456,barkly west,-28.5354,24.5215,21.6,32,8,2.54,ZA,1701649394
457,pangai,-19.8,-174.35,30.06,66,20,7.2,TO,1701649394
458,lashio,22.9333,97.75,13.97,99,63,0.87,MM,1701649395
459,panguipulli,-39.6333,-72.3333,11.62,61,0,1.86,CL,1701649396
460,aykhal,66.0,111.5,-38.59,99,61,2.37,RU,1701649396
461,isla mujeres,21.2311,-86.731,28.03,85,37,4.34,MX,1701649397
462,nhamunda,-2.1861,-56.7131,25.76,82,100,1.1,BR,1701649398
463,ilam,26.9167,87.9167,12.07,78,1,2.78,NP,1701649399
464,mandalgovi,45.7625,106.2708,-7.97,69,0,3.8,MN,1701649400
465,fallon,39.4735,-118.7774,12.18,48,75,3.6,US,1701649400
466,kuanda,56.3161,116.0806,-17.75,98,100,1.09,RU,1701649401
467,bushehr,28.9684,50.8385,18.05,72,88,0.0,IR,1701649401
468,loukhi,66.0764,33.0381,-6.74,97,99,1.91,RU,1701649402
469,hereford,52.0568,-2.7148,8.36,98,100,0.89,GB,1701649133
470,kudahuvadhoo,2.6708,72.8944,27.26,79,98,2.45,MV,1701649403
471,wuda,39.4994,106.7117,-0.87,38,46,1.13,CN,1701649404
472,faya-largeau,17.9257,19.1043,22.24,14,0,5.36,TD,1701649404
473,ingeniero luis a. huergo,-39.0833,-67.2333,16.61,20,0,2.96,AR,1701649405
474,desaguadero,-16.5656,-69.0417,12.78,62,84,4.39,PE,1701649406
475,tacuarembo,-31.7333,-55.9833,15.67,87,100,8.39,UY,1701649346
476,florence,43.7667,11.25,6.8,71,0,4.12,IT,1701649407
477,laojunmiao,39.8333,97.7333,-1.48,24,0,2.21,CN,1701649407
478,necochea,-38.5473,-58.7368,11.21,58,5,5.09,AR,1701649408
479,mil'kovo,55.6078,37.7956,-5.33,95,99,4.22,RU,1701649408
480,axim,4.8699,-2.2405,26.17,87,6,2.83,GH,1701649409
481,gao,16.6362,1.637,24.36,16,81,3.54,ML,1701649409
482,chul'man,56.8479,124.9104,-18.43,98,99,1.72,RU,1701649410
483,kamennogorsk,60.9545,29.1339,-10.25,98,97,1.1,RU,1701649411
484,happy valley-goose bay,53.3168,-60.3315,-15.83,72,20,3.09,CA,1701649303
485,itoman,26.1247,127.6694,21.43,96,75,6.17,JP,1701649412
486,nar'yan-mar,67.6713,53.087,-17.08,96,96,4.39,RU,1701649412
487,hailar,49.2,119.7,-16.61,97,16,2.81,CN,1701649413
488,bac lieu,9.285,105.7244,26.06,85,88,5.41,VN,1701649155
489,khanty-mansiysk,61.0042,69.0019,-26.94,69,0,1.0,RU,1701649414
490,island harbour,50.724,-1.2758,8.85,93,100,6.26,GB,1701649415
491,airuk,7.2772,168.8203,27.66,80,91,8.41,MH,1701649415
492,campbell river,50.0163,-125.2446,8.74,100,75,2.57,CA,1701649243
493,saint-paul,-21.0096,55.2707,22.05,83,4,0.45,RE,1701649416
494,robertsport,6.7533,-11.3686,27.42,81,76,3.7,LR,1701649417
495,hotan,37.0997,79.9269,1.1,37,43,1.29,CN,1701649417
496,verkhnevilyuysk,63.4453,120.3167,-48.51,100,78,0.28,RU,1701649418
497,sur,22.5667,59.5289,24.37,55,1,3.98,OM,1701649419
498,yauya,-8.9833,-77.3,12.82,76,98,2.64,PE,1701649419
499,quellon,-43.1167,-73.6167,9.43,79,14,5.06,CL,1701649420
500,as sulayyil,20.4607,45.5779,16.14,47,41,3.93,SA,1701649420
501,high springs,29.8269,-82.5968,21.32,96,100,0.89,US,1701649421
502,zhicheng,30.2956,111.5047,8.8,70,72,0.3,CN,1701649422
503,kathu,7.9178,98.3332,25.9,82,93,4.81,TH,1701649422
504,penhalonga,-18.8911,32.6978,12.32,77,12,0.99,ZW,1701649423
505,suva,-18.1416,178.4415,31.71,62,40,4.63,FJ,1701649424
506,taoudenni,22.6783,-3.9836,23.53,35,20,3.37,ML,1701649424
507,kenai,60.5544,-151.2583,-5.48,77,0,0.0,US,1701649425
508,korla,41.7597,86.1469,-1.68,54,0,2.5,CN,1701649425
509,wau,7.7029,27.9953,26.59,33,82,1.89,SS,1701649426
510,shizunai-furukawacho,42.3339,142.3669,3.73,63,6,1.43,JP,1701649426
511,albu kamal,34.45,40.9186,14.65,46,44,3.0,SY,1701649427
512,lupane,-18.9315,27.807,19.85,28,16,2.53,ZW,1701649427
513,nouadhibou,20.931,-17.0347,19.99,88,20,5.66,MR,1701649428
514,mount pearl,47.5166,-52.7813,0.64,77,100,4.12,CA,1701649311
515,shar'ya,58.3686,45.5144,-11.68,93,100,1.34,RU,1701649429
516,makurazaki,31.2667,130.3167,12.53,61,66,3.24,JP,1701649430
517,port arthur,38.8,121.2667,8.12,60,96,7.27,CN,1701649430
518,katsuren-haebaru,26.3369,127.8719,21.43,95,100,6.17,JP,1701649431
519,karakocan,38.9558,40.0386,6.63,58,99,1.59,TR,1701649431
520,lillehammer,61.1146,10.4674,-14.61,95,96,1.62,NO,1701649432
521,northam,51.0333,-4.2167,10.92,97,100,8.78,GB,1701649433
522,manta,-0.95,-80.7333,24.88,73,20,5.14,EC,1701649433
523,nuku'alofa,-21.1333,-175.2,29.19,79,75,6.69,TO,1701649434
524,neryungri,56.6709,124.6491,-16.83,95,98,1.84,RU,1701649434
525,ponta delgada,37.7333,-25.6667,13.4,71,20,1.54,PT,1701649435
526,port augusta,-32.5,137.7667,34.8,11,3,7.22,AU,1701649435
527,concepcion,-36.827,-73.0498,12.58,74,0,11.89,CL,1701648725
528,kegen,43.0197,79.2203,-2.72,56,97,2.16,KZ,1701649437
529,enewetak,11.3474,162.3373,27.47,78,96,8.98,MH,1701649437
530,floro,61.5996,5.0328,-0.02,64,40,3.6,NO,1701649438
531,tralee,52.2704,-9.7026,3.57,91,97,4.45,IE,1701649438
532,balqash,46.8481,74.995,0.48,66,61,5.75,KZ,1701649439
533,swift current,50.2834,-107.8014,-3.55,80,0,5.14,CA,1701649349
534,santa elena de uairen,4.6167,-61.1333,23.27,54,57,1.51,VE,1701649440
535,levuka,50.1834,-105.4011,-4.1,69,6,3.59,CA,1701649441
536,tofol,5.3248,163.0078,28.88,79,100,5.14,FM,1701649441
537,mount gambier,-37.8333,140.7667,26.47,26,65,4.34,AU,1701649442
538,la passe,45.5549,-0.8967,7.13,83,100,8.81,FR,1701649443
539,kangding,30.0513,101.9603,3.07,71,22,2.32,CN,1701649444
540,cobija,-11.0267,-68.7692,24.4,89,99,0.9,BO,1701649444
541,gobabis,-22.45,18.9667,22.83,55,85,6.88,NA,1701649445
542,misratah,32.3754,15.0925,18.42,69,58,8.7,LY,1701649445
543,enniskillen,54.3461,-7.6413,-0.69,95,24,1.85,GB,1701649446
544,cole harbour,44.6724,-63.4751,-0.01,94,100,4.63,CA,1701649447
545,tarnogskiy gorodok,60.4997,43.5761,-10.94,94,100,2.44,RU,1701649448
546,tongouson,5.0214,120.1328,28.26,76,87,2.38,PH,1701649448
547,motygino,58.1831,94.7592,-0.12,98,100,4.02,RU,1701649449
548,borazjan,29.2666,51.2159,19.24,47,74,0.79,IR,1701649450
549,ust'-barguzin,53.45,108.9833,-10.09,90,94,3.27,RU,1701649450
550,dali,25.7,100.1833,7.99,90,93,1.35,CN,1701649451
551,indianola,41.3581,-93.5574,2.27,85,89,2.26,US,1701649452
552,novyy urgal,51.0736,132.5642,-12.05,91,100,1.05,RU,1701649452
